City_ID,City,Country,Max Temp,Current Description,Lat,Lng,Hotel Name
4,Waingapu,ID,78.64,broken clouds,-9.6567,120.2641,Pondok Wisata Elim
9,Sechura,PE,74.12,scattered clouds,-5.5569,-80.8222,Hospedaje Costa Bella
10,Saint-Philippe,RE,74.48,light rain,-21.3585,55.7679,"Chambres d'hôte ""La Trinité"""
11,Guerrero Negro,MX,70.54,clear sky,27.9769,-114.0611,"Casa Laguna, Bed & Breakfast"
12,Rikitea,PF,75.06,scattered clouds,-23.1203,-134.9692,People ThankYou
13,Soyo,AO,77.27,light rain,-6.1349,12.3689,Hotel Mpampa
14,Puerto Ayora,EC,82.36,overcast clouds,-0.7393,-90.3518,Finch Bay Galapagos Hotel
17,Hilo,US,79.11,scattered clouds,19.7297,-155.09,Hilo Hawaiian Hotel
19,Savannah Bight,HN,91.45,broken clouds,16.45,-85.85,Villa on Dunbar Rock
23,Shush,IR,71.85,clear sky,32.1942,48.2436,Mosque Zaman (AS) Cultural promised -Kanvn
24,Hithadhoo,MV,82.22,broken clouds,-0.6,73.0833,Scoop Guest House
25,Cabo San Lucas,MX,89.62,clear sky,22.8909,-109.9124,Hotel Tesoro Los Cabos
26,Grand Gaube,MU,75.38,overcast clouds,-20.0064,57.6608,Veranda Paul et Virginie Hotel & Spa
27,Dhaka,BD,82.38,haze,23.7104,90.4074,Main Hostel SSMC
30,Correntina,BR,72.43,overcast clouds,-13.3433,-44.6367,Hotel Pousada dos Sonhos
32,Bengkulu,ID,75.13,overcast clouds,-3.8004,102.2655,Grage Hotel Bengkulu
35,Kavieng,PG,83.84,broken clouds,-2.5744,150.7967,Nusa Island Retreat
36,Progreso,MX,83.07,overcast clouds,21.2833,-89.6667,Playa Linda Hotel
37,Avarua,CK,77.05,scattered clouds,-21.2078,-159.775,Paradise Inn
39,Luganville,VU,81.05,scattered clouds,-15.5333,167.1667,The Espiritu Hotel
40,Marsa Matruh,EG,70.86,scattered clouds,31.3525,27.2453,Beau Site
41,Harper,LR,77.58,overcast clouds,4.375,-7.7169,Screensaver
43,Bandarbeyla,SO,78.21,few clouds,9.4942,50.8122,JABIR HOTEL
45,Ambon,ID,73.54,scattered clouds,-3.6954,128.1814,Swiss-Belhotel Ambon
49,Denpasar,ID,78.46,scattered clouds,-8.65,115.2167,ASTON Denpasar Hotel & Convention Center
51,Kapaa,US,84.18,scattered clouds,22.0752,-159.319,Sheraton Kauai Coconut Beach Resort
53,Esperance,AU,67.84,overcast clouds,-33.8667,121.9,Hospitality Esperance
54,Comodoro Rivadavia,AR,67.86,overcast clouds,-45.8667,-67.5,Austral Hotel
57,Camocim,BR,81.9,scattered clouds,-2.9022,-40.8411,Hotel Ilha do Amor
58,Anamur,TR,68.4,clear sky,36.0751,32.8369,Luna Piena Beach Hotel
62,Durg,IN,67.8,few clouds,21.1833,81.2833,OYO 37028 Hotel Sheela
63,Pisco,PE,68.05,clear sky,-13.7,-76.2167,Hotel San Isidro Oficial
65,Shirgaon,IN,75.4,few clouds,19.7,72.7,"Samarth Krupa Farm, Palghar"
66,Vaini,TO,78.96,few clouds,-21.2,-175.2,Keleti Beach Resort
72,Mahebourg,MU,74.25,scattered clouds,-20.4081,57.7,Shandrani Beachcomber Resort & Spa
74,Ribeira Grande,PT,66.69,clear sky,38.5167,-28.7,Quinta da Meia Eira
76,Jalu,LY,74.37,few clouds,29.0331,21.5482,صاحبة الفخامة
78,Bani Walid,LY,72.36,few clouds,31.7566,13.9942,منزل الصابر أبوفانة
81,Poum,NC,76.19,scattered clouds,-20.2333,164.0167,Gîte kajeon
83,Humaita,BR,85.46,broken clouds,-7.5061,-63.0208,Corrêa Hotel
86,Urbano Santos,BR,80.46,few clouds,-3.2078,-43.4036,Pousada Santa Dulce
90,Pentecoste,BR,80.67,few clouds,-3.7928,-39.2703,Motel Big love
92,Carlsbad,US,79.09,overcast clouds,33.1581,-117.3506,Carlsbad Inn Beach Resort
101,Port-Gentil,GA,80.56,broken clouds,-0.7193,8.7815,Fengshui Residence
102,Lazaro Cardenas,MX,76.98,overcast clouds,17.9583,-102.2,quinta antigua
105,Ponta Do Sol,PT,71.71,overcast clouds,32.6667,-17.1,Hotel do Campo
108,Mar Del Plata,AR,68.02,clear sky,-38.0023,-57.5575,Gran Hotel Mar del Plata
110,Mercedes,AR,71.04,clear sky,-34.6515,-59.4307,Posada del Inti Centro
112,Butaritari,KI,81.48,scattered clouds,3.0707,172.7902,Isles Sunset Lodge
116,Atuona,PF,77.92,clear sky,-9.8,-139.0333,Villa Enata
117,Mamallapuram,IN,78.85,overcast clouds,12.6264,80.1722,Radisson Blu Resort Temple Bay Mamallapuram
118,La Palma,US,76.96,scattered clouds,33.8464,-118.0467,La Quinta Inn & Suites by Wyndham Buena Park
119,Petatlan,MX,76.8,overcast clouds,17.5167,-101.2667,Hotel California Petatlán
123,Marsh Harbour,BS,81.07,light rain,26.5412,-77.0636,Abaco Beach Resort
124,Sao Filipe,CV,78.53,scattered clouds,14.8961,-24.4956,Hotel Xaguate
125,Jardim,BR,71.82,overcast clouds,-21.4803,-56.1381,Estancia Hotel - Jardim MS
126,Quelimane,MZ,77.7,clear sky,-17.8786,36.8883,Hotel Flamingo
128,Harindanga,IN,78.78,clear sky,22.0383,88.3214,Hasanur Builders
131,Kahului,US,84.97,broken clouds,20.8947,-156.47,Maui Seaside Hotel
134,Celestun,MX,84.24,broken clouds,20.8667,-90.4,Posada Lilia
137,Alcudia,ES,65.19,broken clouds,39.8532,3.1214,Zafiro Tropic
139,Itabira,BR,67.96,overcast clouds,-19.6192,-43.2269,Premium Executive Hotel
140,Kibala,TD,76.95,light rain,9.1104,18.3463,hotel safari
143,Urucui,BR,84.79,overcast clouds,-7.2294,-44.5561,Hotel Premium Piauí
145,Soeng Sang,TH,67.3,overcast clouds,14.4264,102.4606,ปาณิสรา รีสอร์ท
147,Tukrah,LY,79.07,overcast clouds,32.5341,20.5791,Lagrota restaurant
148,Victoria,HK,70.25,scattered clouds,22.2855,114.1577,Mini Hotel Central
154,Carutapera,BR,81.09,clear sky,-1.195,-46.02,Lidera
156,Mosta,MT,69.78,few clouds,35.9092,14.4256,The Xara Palace Relais & Chateaux
157,Myitkyina,MM,67.86,clear sky,25.3833,97.4,Shwe Phyu Hotel
161,Cap Malheureux,MU,75.47,broken clouds,-19.9842,57.6142,Pereybere Hotel & Spa
165,Rafai,CF,68.97,light rain,4.95,23.9167,
167,Filingue,NE,91.87,overcast clouds,14.3521,3.3168,
168,Canchungo,GW,84.27,overcast clouds,12.0672,-16.0333,Aparthotel Napalach
172,Beira,MZ,78.89,broken clouds,-19.8436,34.8389,Beira Terrace Hotel
174,Shorapur,IN,71.02,broken clouds,16.5167,76.75,Up Inn Lodge
175,Natitingou,BJ,77.05,overcast clouds,10.3042,1.3796,Auberge Centrale
176,Bambous Virieux,MU,75.22,scattered clouds,-20.3428,57.7575,Casa Tia Villa
177,Siocon,PH,77.43,overcast clouds,7.7061,122.1353,ABS Hotel
179,Saint George,US,75.67,clear sky,37.1041,-113.5841,Best Western Plus Abbey Inn
181,Yeppoon,AU,76.78,scattered clouds,-23.1333,150.7333,Villa Mar Colina
182,Souillac,MU,75.36,scattered clouds,-20.5167,57.5167,Shanti Maurice Resort & Spa
183,Dulce Grande,MX,76.44,scattered clouds,23.0,-102.1667,
184,Manokwari,ID,78.85,overcast clouds,-0.8667,134.0833,Swiss Belhotel Manokwari
185,Coihueco,CL,74.14,clear sky,-36.6167,-71.8333,Frutillares Coihueco
187,Goure,NE,88.02,few clouds,13.9835,10.2704,
188,Umm Lajj,SA,77.41,clear sky,25.0213,37.2685,Moon light Furnished Units
192,Wahiawa,US,79.79,broken clouds,21.5028,-158.0236,Aloha Wahiawa
195,Georgetown,MY,77.9,few clouds,5.4112,100.3354,Cititel Penang
196,Buraydah,SA,75.65,clear sky,26.326,43.975,فندق راحة السلام
197,Kaniama,CD,67.32,light rain,-7.5667,24.1833,
199,Itarema,BR,80.55,clear sky,-2.9248,-39.9167,"Sea Lounge! Bar, Club & Restaurant"
201,Caravelas,BR,77.36,clear sky,-17.7125,-39.2481,Pousada dos Navegantes
202,Dingle,PH,75.47,overcast clouds,10.9995,122.6711,SEGAYA PROPERTY
203,Camacha,PT,67.42,scattered clouds,33.0833,-16.3333,Hotel Porto Santo & Spa
204,Arraial Do Cabo,BR,75.06,light rain,-22.9661,-42.0278,Pousada Porto Praia
205,Hualmay,PE,65.52,few clouds,-11.0964,-77.6139,Hotel Villa Kitzia Huacho
207,Katobu,ID,75.74,overcast clouds,-4.9408,122.5276,La Ode Husein
208,Laminusa,PH,81.59,scattered clouds,5.5549,120.9136,Laminusa Port
211,Hirara,JP,73.67,scattered clouds,24.8,125.2833,Hotel Atoll Emerald Miyakojima
216,Padang,ID,76.37,moderate rain,-0.9492,100.3543,Mercure Padang
217,Lahij,YE,77.5,clear sky,13.1667,44.5833,
223,Alvorada,BR,85.01,overcast clouds,-12.48,-49.1247,Cristal Plaza Hotel
225,Faanui,PF,77.02,overcast clouds,-16.4833,-151.75,Bora-Bora Pearl Beach Resort & Spa
227,Nobres,BR,72.99,overcast clouds,-14.7203,-56.3275,Hotel Portal Nobres
228,Mayumba,GA,76.77,light rain,-3.432,10.6554,LIKWALE LODGE
231,Lompoc,US,71.74,overcast clouds,34.6391,-120.4579,"Holiday Inn Express Lompoc, an IHG Hotel"
232,Touros,BR,81.5,scattered clouds,-5.1989,-35.4608,INN NEW HORIZON
233,Sahiwal,PK,65.55,clear sky,30.6667,73.1,Hussain Abad Colony
235,Simpang,ID,74.19,overcast clouds,-1.2667,104.0833,
236,Vila Velha,BR,80.55,scattered clouds,-20.3297,-40.2925,Quality Suites Vila Velha
238,Mopti,ML,89.64,broken clouds,14.6667,-4.0,
242,Feijo,BR,89.42,overcast clouds,-8.1642,-70.3536,Hotel e Restaurante Aҫai
244,Hobyo,SO,79.34,broken clouds,5.3505,48.5268,Halane Hotel and Restaurent
247,Sur,OM,81.57,clear sky,22.5667,59.5289,Sur Plaza Hotel
248,Kapiri Mposhi,ZM,74.66,broken clouds,-13.9652,28.6809,MA 22 LODGE
249,Toowoomba,AU,65.25,broken clouds,-27.55,151.9667,Toowoomba Central Plaza Apartment Hotel
250,Nouadhibou,MR,71.58,broken clouds,20.931,-17.0347,El Medina
252,Safaga,EG,75.43,clear sky,26.7292,33.9365,Lamar Resort Abu Soma
253,Ternate,ID,79.93,broken clouds,0.8,127.4,Grand Dafam Bela Ternate
255,Kroya,ID,78.13,overcast clouds,-7.6331,109.2461,RUSTANTO Fam
261,Akyab,MM,76.23,overcast clouds,20.15,92.9,Hotel Memory
262,Nuevitas,CU,82.02,overcast clouds,21.5453,-77.2644,Hotel Caonaba
263,Cayenne,GF,82.09,heavy intensity rain,4.9333,-52.3333,Hôtel Le Dronmi
265,Yaring,TH,77.97,overcast clouds,6.8662,101.3689,สถานที่จัดงานแต่ง SOFEE & DORN
267,Kualakapuas,ID,75.36,broken clouds,-3.0091,114.3876,Guest House Izonk
268,Gizo,SB,83.21,scattered clouds,-8.103,156.8419,Imagination Island
270,Ahipara,NZ,65.98,few clouds,-35.1667,173.1667,Ahipara Holiday Park
274,Inhambane,MZ,72.93,light rain,-23.865,35.3833,Oceano
278,Batesville,US,82.83,broken clouds,35.7698,-91.641,"Holiday Inn Express & Suites Batesville, an IHG Hotel"
280,Mount Isa,AU,78.57,light rain,-20.7333,139.5,ibis Styles Mt Isa Verona
283,Chimbote,PE,66.42,clear sky,-9.0853,-78.5783,Hotel Viera Chimbote
284,Binga,ZW,80.42,few clouds,-17.6203,27.3414,Lakeview Inn Binga
285,Chirongui,YT,80.53,scattered clouds,-12.9319,45.1483,La Villa Mahatsara
286,Tamandare,BR,77.7,broken clouds,-8.7597,-35.1047,Pousada 100 Passos
287,Tagusao,PH,77.45,overcast clouds,9.1924,117.8141,Toledo
288,Saint-Pierre,RE,74.57,overcast clouds,-21.3393,55.4781,Lindsey Hôtel
290,Sola,VU,84.87,broken clouds,-13.8833,167.55,Leumerus Bungalows
291,Lagoa,PT,66.09,few clouds,39.05,-27.9833,Casa Das Faias
292,Kokopo,PG,81.28,overcast clouds,-4.352,152.2633,Kokopo Beach Bungalow Resort
297,Port Blair,IN,79.79,broken clouds,11.6667,92.75,"Welcomhotel By ITC Hotels, Bay Island, Port Blair"
298,Obo,CF,72.01,scattered clouds,5.3998,26.4869,
299,Ipoh,MY,76.95,few clouds,4.5841,101.0829,Ritz Garden Hotel
300,Tadine,NC,74.46,scattered clouds,-21.55,167.8833,
301,Nioro,GM,81.18,overcast clouds,13.35,-15.75,
303,Culiacan,MX,97.16,clear sky,24.7994,-107.3897,Ramada by Wyndham Hola Culiacan
304,Kazerun,IR,65.05,clear sky,29.6195,51.6541,آپارتمان بزرگ اویسا
305,Fort Collins,US,71.76,clear sky,40.5853,-105.0844,Best Western University Inn
310,Gat,IL,69.82,clear sky,31.61,34.7642,OlusHome
311,San Patricio,US,92.12,clear sky,28.017,-97.5169,"Motel 6 Sinton, TX"
312,Meadow Lake,US,76.39,scattered clouds,34.8014,-106.5436,TumbleWeed RV Park
320,Baramati,IN,70.86,clear sky,18.15,74.5833,OYO 43302 Hotel Sargam
321,Catuday,PH,79.0,light rain,16.2923,119.8062,Benjie's Kubo & Cottages
326,Camapua,BR,70.41,overcast clouds,-19.5314,-54.0439,Comercial Estrela
327,Kloulklubed,PW,81.1,broken clouds,7.0419,134.2556,Storyboard Beach Resort
328,Sulangan,PH,82.62,overcast clouds,11.1373,123.7228,Maia's Beach Resort
330,Haikou,CN,71.73,light rain,20.0458,110.3417,Sun City Restaurant
332,Bubaque,GW,82.72,overcast clouds,11.2833,-15.8333,"Casa Dora, Bubaque"
335,Mackay,AU,85.68,broken clouds,-21.15,149.2,International Lodge Motel
336,Jinka,ET,71.37,overcast clouds,5.65,36.65,
338,Bonthe,SL,78.22,light rain,7.5264,-12.505,Bonthe Holiday Village
342,Matamoros,MX,87.24,clear sky,25.5333,-103.25,Quinta Belem
343,Catia La Mar,VE,88.0,broken clouds,10.6038,-67.0303,HOTEL PLAYA GRANDE CARIBE
345,Kaeo,NZ,69.33,few clouds,-35.1,173.7833,Bushido Lodge
348,Portales,US,82.33,clear sky,34.1862,-103.3344,"Holiday Inn Express & Suites Portales, an IHG Hotel"
350,Warrensburg,US,75.27,scattered clouds,38.7628,-93.7361,Comfort Inn Warrensburg Station
351,Los Llanos De Aridane,ES,67.75,broken clouds,28.6585,-17.9182,Valle Aridane
352,Naze,JP,68.92,broken clouds,28.3667,129.4833,オーベルジュ・アガルイ
354,Puerto Escondido,MX,83.93,overcast clouds,15.85,-97.0667,Aldea del Bazar Hotel and Spa
356,Isangel,VU,80.71,scattered clouds,-19.55,169.2667,Tanna Lodge
357,Hamilton,US,74.71,overcast clouds,39.1834,-84.5333,Six Acres Bed & Breakfast
358,Jamame,SO,77.47,scattered clouds,0.0722,42.7506,
359,Adrar,MR,84.18,few clouds,20.5022,-10.0711,
360,Meulaboh,ID,74.61,overcast clouds,4.1363,96.1285,Kost Pria
362,Kavaratti,IN,81.39,broken clouds,10.5669,72.642,Hotels in Lakshadweep Islands
363,Palmares,BR,73.62,broken clouds,-8.6833,-35.5917,Destak Hotel Residence
365,Saint-Joseph,RE,73.47,scattered clouds,-21.3667,55.6167,"""Plantation Bed and Breakfast"
367,Pocone,BR,76.21,overcast clouds,-16.2567,-56.6228,Hotel e Churrascaria Pantaneira
369,Pemangkat,ID,77.41,overcast clouds,1.1667,108.9667,Ramah Kost KITA
373,Rawah,IQ,67.42,clear sky,34.4816,41.9093,المملكة الراوية الهاشمية
374,Vargem Alta,BR,72.46,overcast clouds,-20.6714,-41.0069,Pousada Mont Serrat
376,Sao Joao Da Barra,BR,78.89,overcast clouds,-21.6403,-41.0511,Pousada Porto De Canoas
379,Kedougou,SN,82.98,thunderstorm with light rain,12.5579,-12.1743,Relais de Kédougou
381,Bardiyah,LY,71.35,overcast clouds,31.7561,25.0865,بورتو بردية
383,Rockhampton,AU,76.89,scattered clouds,-23.3833,150.5,Mercure Rockhampton
387,Thongwa,MM,78.96,overcast clouds,16.7619,96.5278,U Poe Sann
390,Kirakira,SB,84.83,few clouds,-10.4544,161.9205,SanBiz Lodge
391,Mul,IN,66.18,few clouds,20.0667,79.6667,Ram Mangar
392,Cockburn Town,TC,82.36,scattered clouds,21.4612,-71.1419,Osprey Beach Hotel
396,Akonolinga,CM,68.16,light rain,3.7667,12.25,Le Diamant De Mireille
398,Soc Trang,VN,75.16,overcast clouds,9.6033,105.98,Phu Quy Hotel
402,Fruitvale,US,69.73,scattered clouds,39.0817,-108.4968,Grand Junction Palomino Inn
403,Buala,SB,84.06,few clouds,-8.145,159.5921,Maringe Lagoon Lodge
405,Paso De Los Toros,UY,75.54,clear sky,-32.8167,-56.5167,Complejo Isabelino
406,Boa Esperanca,BR,71.55,overcast clouds,-21.09,-45.5658,Hotel do Lago
407,Bac Lieu,VN,77.72,overcast clouds,9.285,105.7244,Khách sạn Sài Gòn Bạc Liêu
412,Gushikawa,JP,74.43,clear sky,26.3544,127.8686,Kirari Guest House
413,Carnarvon,AU,68.07,scattered clouds,-24.8667,113.6333,Hospitality Carnarvon
415,Hambantota,LK,79.14,moderate rain,6.1241,81.1185,Bungalow 63
417,Maningrida,AU,82.2,scattered clouds,-12.0667,134.2667,Dhukurrdji Lodge
418,Ixtapa,MX,86.23,overcast clouds,20.7,-105.2,Hotel Plaza Providencia
419,Malpura,IN,71.67,clear sky,26.2833,75.3833,Tak House cum Legal Advisory Chambers
421,Taoudenni,ML,87.78,clear sky,22.6783,-3.9836,
423,Kuching,MY,77.22,few clouds,1.55,110.3333,The Ranee Boutique Suites
425,Boa Vista,BR,89.58,scattered clouds,2.8197,-60.6733,Aipana Plaza Hotel
426,Byron Bay,AU,75.06,overcast clouds,-28.65,153.6167,Backpackers Inn on the Beach
427,Todos Santos,MX,89.11,clear sky,23.45,-110.2167,Hotel California Todos Santos
428,Clarence Town,AU,67.14,scattered clouds,-32.5833,151.7833,River Downs Cottage
429,Vao,NC,70.57,few clouds,-22.6667,167.4833,Hotel Kou-Bugny
430,Alofi,NU,80.49,broken clouds,-19.0595,-169.9187,Taloa Heights
435,Rafaela,AR,79.05,clear sky,-31.2503,-61.4867,Parra Hotel & Suites
438,Nizwa,OM,78.15,clear sky,22.9333,57.5333,Orient Apartments
439,Puerto Armuelles,PA,84.83,overcast clouds,8.2833,-82.8667,Big Daddy's Beach Club & Hotel
440,Muisne,EC,77.05,overcast clouds,0.6,-80.0333,Quinta Samay
443,Acari,PE,70.79,few clouds,-15.4311,-74.6158,HOSPEDAJE XIMENA
448,Ngunguru,NZ,69.17,overcast clouds,-35.6167,174.5,Pacific Rendezvous Motel Resort
450,Salalah,OM,75.79,scattered clouds,17.0151,54.0924,"HAMDAN PLAZA HOTEL SALALAH, an HTG Hotel"
455,Labuhan,ID,78.28,moderate rain,-6.8844,112.2051,PT PPI Lamongan Tambak C
458,Tautira,PF,77.02,moderate rain,-17.7333,-149.15,Pension Oaoa
459,Gorontalo,ID,75.0,overcast clouds,0.5412,123.0595,Maqna Hotel by Prasanthi
461,Palmerston North,NZ,72.05,overcast clouds,-40.35,175.6167,Distinction Coachman Hotel Palmerston North
462,Mazagao,BR,87.85,scattered clouds,-0.115,-51.2894,Recanto dos Ferreiras
464,Indiaroba,BR,78.17,scattered clouds,-11.5192,-37.5117,Pura Vida Bahia
465,Ishigaki,JP,75.33,broken clouds,24.3448,124.1572,Hotel Peace Land Ishigakijima
466,Alta Floresta,BR,81.23,light rain,-9.8756,-56.0861,Floresta Amazonica Hotel
467,Kaoma,ZM,71.53,broken clouds,-14.7833,24.8,KAOMA AIRPORT
468,Arawa,PG,83.88,overcast clouds,-6.2132,155.5367,Coastline Guest House
469,Wanning,CN,70.81,overcast clouds,18.8003,110.3967,Paradise Hotel
471,Ipixuna,BR,85.95,broken clouds,-1.7625,-48.8043,Casa da Oscarina
473,Vianopolis,BR,67.35,light rain,-16.7419,-48.5164,FM Materiais para Construção _ Vianopolis
474,Kyaiklat,MM,79.07,scattered clouds,16.4333,95.7333,Ayar San Girls Hostel
478,Thinadhoo,MV,82.94,overcast clouds,0.5333,72.9333,
482,San Quintin,MX,74.44,clear sky,30.4833,-115.95,Don Eddie's Sport Fishing Center
483,Nishihara,JP,74.48,few clouds,26.1842,127.7558,Minshuku Agaihama
484,Saint-Georges,GD,83.88,scattered clouds,12.0564,-61.7485,Radisson Grenada Beach Resort
485,Tessalit,ML,87.42,scattered clouds,20.1986,1.0114,
486,Tawau,MY,73.53,broken clouds,4.2498,117.8871,Shervinton Executive Boutique Hotel
487,Lamu,KE,76.82,clear sky,-2.2717,40.902,Lamu House
490,Conway,US,85.08,few clouds,35.0887,-92.4421,"Country Inn & Suites by Radisson, Conway, AR"
491,Sao Cristovao,BR,80.51,few clouds,-11.0147,-37.2064,Vó Nazinha Hostel
493,Yafran,LY,65.93,scattered clouds,32.0633,12.5286,بيوت الشباب بيفرن
494,Kitwe,ZM,74.73,overcast clouds,-12.7961,28.2477,Crossroad Lodge Kitwe
496,Biak,ID,76.51,broken clouds,-0.9131,122.8766,Penginapan Kim
500,Norcasia,CO,79.18,broken clouds,5.5778,-74.8852,Hotel Amani
501,Fort Walton Beach,US,73.45,moderate rain,30.4058,-86.6188,Best Western Ft. Walton Beachfront
503,Kailua,US,83.14,broken clouds,21.4022,-157.7394,Sheffield House Bed & Breakfast
504,Marawi,PH,65.64,broken clouds,7.9986,124.2928,Derogongan Residence
508,Maracaibo,VE,84.09,light rain,10.6317,-71.6406,Motel Aladdin
513,Auki,SB,83.73,few clouds,-8.7676,160.7034,Auki Motel
515,Sadao,TH,75.02,overcast clouds,6.6388,100.4234,Banana Resort Sadao
516,Araouane,ML,89.56,few clouds,18.9048,-3.5265,
517,Luanda,AO,75.2,few clouds,-8.8368,13.2343,Hotel Fórum
520,Lorengau,PG,81.84,broken clouds,-2.0226,147.2712,Lorengau Harbourside Hotel
521,La Ligua,CL,82.18,clear sky,-32.4524,-71.2311,Hotel Anchimallen
522,Haimen,CN,66.09,broken clouds,23.1935,116.6142,Jinghao Business Hotel
529,Beloha,MG,72.39,broken clouds,-25.1667,45.05,
535,Tougan,BF,80.89,scattered clouds,13.0667,-3.0667,Hôtel SMAK
537,Belmonte,BR,79.3,scattered clouds,-15.8631,-38.8828,Pousada Monte Carmelo O Pão
539,Kudahuvadhoo,MV,82.47,scattered clouds,2.6708,72.8944,Niyama Private Islands Maldives
540,Santa Maria,BR,72.7,clear sky,-29.6842,-53.8069,Hotel Morotin
541,Contamana,PE,93.76,broken clouds,-7.3333,-75.0167,Shiringal Touristic Park
543,Marrakesh,MA,71.67,clear sky,31.6315,-8.0083,Novotel Marrakech Hivernage
544,Pundaguitan,PH,82.18,overcast clouds,6.3711,126.1689,Leonardo Family Beach House 1
545,Beni Mazar,EG,69.42,clear sky,28.4962,30.8029,Link Co-Working space & Development center
546,Baculin,PH,78.17,moderate rain,7.4525,126.5842,Shovy's Cove
547,Segou,ML,86.61,scattered clouds,13.4317,-6.2157,Comme chez soi
550,Kutum,SD,75.43,clear sky,14.2,24.6667,Dibbo areaمنطقة دبو
552,Ankazoabo,MG,68.83,clear sky,-22.2833,44.5167,ENCEIN BUREAU CISCO
553,Acajutla,SV,83.68,broken clouds,13.5928,-89.8275,asi es
554,Moerai,PF,72.88,clear sky,-22.4333,-151.3333,Le Manotel
557,Rivadavia,AR,84.67,clear sky,-33.1905,-68.4608,Posada Del Fin Del Mundo
558,Dong Hoi,VN,68.67,overcast clouds,17.4833,106.6,Nam Long Hotel
560,San Cristobal,VE,75.38,broken clouds,7.7669,-72.225,Posada Villaven C.A.
563,Canelones,UY,71.31,clear sky,-34.6444,-56.2886,Chacra Los Cardenales
568,Kilifi,KE,79.18,few clouds,-3.6305,39.8499,Baobab Sea Lodge-Kilifi
569,Karratha,AU,74.95,clear sky,-20.7377,116.8463,ibis Styles Karratha
570,Moctezuma,MX,85.05,clear sky,29.8,-109.6667,Hotel Lobohombo
571,Thabazimbi,ZA,69.21,clear sky,-24.5917,27.4116,Eagle's Rest
572,Springdale,US,74.79,scattered clouds,36.1867,-94.1288,Springdale Inn
573,Neiafu,TO,79.48,few clouds,-18.65,-173.9833,Mystic Sands Beachfront Accommodation
580,Port Macquarie,AU,69.89,few clouds,-31.4333,152.9167,Rydges Port Macquarie
581,Ascension,US,82.4,overcast clouds,30.2169,-90.9001,Highland Inn
583,Kindu,CD,69.57,moderate rain,-2.95,25.95,Résidence Okanda
584,Tecoanapa,MX,81.25,overcast clouds,16.5167,-98.75,Hotel Manglares
587,Bagotville,AU,69.64,light rain,-28.9833,153.4167,Broadwater Sunrise Caravan Park
589,Nueve De Julio,AR,65.86,clear sky,-35.4444,-60.8831,Grand Hotel Libertad - GHL
591,Havelock,US,74.05,overcast clouds,34.8791,-76.9013,Sherwood Motel
593,Paciran,ID,78.22,moderate rain,-6.8767,112.3761,Tanjung Kodok Beach Resort
594,Porto Novo,BJ,80.42,scattered clouds,6.4965,2.6036,Tour Eiffel Hotel Benin
600,Kieta,PG,83.53,broken clouds,-6.2167,155.6333,Uruna Bay Retreat
604,Mahibadhoo,MV,82.72,few clouds,3.7833,72.9667,Omadhoo Inn
608,Biltine,TD,85.51,clear sky,14.5333,20.9167,Hôtel Trois Étoiles de Biltine
610,Agadez,NE,83.1,clear sky,19.75,10.25,
614,Fare,PF,75.29,moderate rain,-16.7,-151.0167,Maitai Lapita Village Huahine
615,Makakilo City,US,81.61,broken clouds,21.3469,-158.0858,Marriott's Ko Olina Beach Club
616,Bentiu,SS,80.13,few clouds,9.2333,29.8333,Mandela hôtel
619,Andilamena,MG,66.94,overcast clouds,-17.0167,48.5833,Police men home Andilamina
627,Amapa,BR,75.45,heavy intensity rain,1.0,-52.0,
628,Manvi,IN,73.4,overcast clouds,15.9833,77.05,My Manvi Home : AKSHAYA NILAYA
631,Quatre Cocos,MU,75.09,overcast clouds,-20.2078,57.7625,Sunrise Attitude Hotel
633,Olinda,BR,79.0,scattered clouds,-8.0089,-34.8553,Hotel Albergue de Olinda
637,Huarmey,PE,67.57,clear sky,-10.0681,-78.1522,Hotel Miramar
638,Imbituba,BR,69.82,clear sky,-28.24,-48.6703,Praia Hotel Imbituba
639,Shakawe,BW,72.03,broken clouds,-18.3667,21.85,Ditlhapi Guest House
642,General Pico,AR,73.99,clear sky,-35.6566,-63.7568,Euskadi Hotel
644,Mitsamiouli,KM,79.03,clear sky,-11.3847,43.2844,Foyer ADM
651,Charters Towers,AU,77.65,few clouds,-20.1,146.2667,Cattleman's Rest Motor Inn
657,Tual,ID,81.43,overcast clouds,-5.6667,132.75,Grand Vilia Hotel
658,Pacific Grove,US,66.58,overcast clouds,36.6177,-121.9166,Lovers Point Inn
660,Maneadero,MX,71.19,scattered clouds,31.7167,-116.5667,Casa De Thompson
662,Puerto Madero,MX,83.55,overcast clouds,14.7208,-92.4215,Hotel La Central
664,Banyo,CM,66.49,overcast clouds,6.75,11.8167,Motel JOMBA
665,Hit,IQ,69.58,clear sky,33.6416,42.8251,صالون زيرو
666,Fernandina Beach,US,80.78,clear sky,30.6697,-81.4626,Hampton Inn Amelia Island at Fernandina Beach
667,Oussouye,SN,80.11,overcast clouds,12.485,-16.5469,Auberge du Routard
669,Moranbah,AU,79.09,broken clouds,-22.0016,148.0466,Direct Hotels - Monterey Moranbah
670,Lusambo,CD,70.99,broken clouds,-4.9667,23.45,
671,Itoman,JP,75.22,few clouds,26.1247,127.6694,Southern Beach Hotel & Resort Okinawa
672,Vanimo,PG,79.02,overcast clouds,-2.6741,141.3028,Vahmoneh Lodge Vanimo
673,Coruripe,BR,78.4,broken clouds,-10.1256,-36.1756,Pousada e Hotel Litoral Sul
675,Mercaderes,CO,71.98,moderate rain,1.8009,-77.166,CASA EL BOSQUE TURISMER
676,Sinnamary,GF,78.55,moderate rain,5.3833,-52.95,ALETHEIA Appartement Sinnamary
678,Carupano,VE,79.93,overcast clouds,10.6678,-63.2585,Hotel La dorada
682,Dwarka,IN,79.2,clear sky,22.2394,68.9678,Hotel Narayan Avezika Comfort
683,Allende,MX,94.75,scattered clouds,25.2833,-100.0167,Ecovergel Hotel Boutique
684,Cabedelo,BR,78.4,overcast clouds,-6.9811,-34.8339,Hotel Pigalle
687,Tiarei,PF,77.02,moderate rain,-17.5333,-149.3333,Le Rocher de Tahiti
691,Sambava,MG,75.83,light rain,-14.2667,50.1667,Melrose
693,Samarai,PG,81.25,broken clouds,-10.6167,150.6667,Nuli Sapi
695,Soavinandriana,MG,65.26,broken clouds,-19.1667,46.7333,
696,Simplicio Mendes,BR,82.36,broken clouds,-7.8539,-41.9103,Fidalgo
698,Kempsey,AU,69.94,few clouds,-31.0833,152.8333,Park Drive Motel
701,Damaturu,NG,84.83,overcast clouds,11.747,11.9608,"Hayas Guest Inn, Central Roundabout, Gujba Road"
703,Fuerte Olimpo,PY,74.59,few clouds,-21.0415,-57.8738,Hospedaje DAMI
